[
  {
    "FID": "9",
    "NAAM": "Centrum Geestelijke Gezondheidszorg Eclips - Kinderzorg en Jongerenzorg",
    "HUISNR": "59",
    "STRAAT": "Jef Vandermeulenstraat",
    "GEMEENTE": "Gentbrugge",
    "POSTCODE": "9050",
    "EMAIL": "kinderenzorg@cggeclips.be",
    "TELEFOON": "09 233 91 42",
    "WEBSITE": "",
    "OPENOP": "",
    "FICHE": "",
    "DRUPAL_ID": "4526",
    "lat": "51.0417020027067",
    "lng": "3.75744100537791"
  },
  {
    "FID": "10",
    "NAAM": "Regionaal Centrum voor Geestelijke Gezondheidszorg Deinze-Eeklo-Gent Keizervest",
    "HUISNR": "17",
    "STRAAT": "Keizervest",
    "GEMEENTE": "Gent",
    "POSTCODE": "9000",
    "EMAIL": "cgg.keizervest@rcgg.be",
    "TELEFOON": "09 223 20 82",
    "WEBSITE": "",
    "OPENOP": "",
    "FICHE": "",
    "DRUPAL_ID": "4537",
    "lat": "51.0413210028603",
    "lng": "3.73882500538968"
  },
  {
    "FID": "11",
    "NAAM": "Centrum Geestelijke Gezondheidszorg Eclips - Volwassenenzorg Elyzeese Velden",
    "HUISNR": "74",
    "STRAAT": "Elyzeese Velden",
    "GEMEENTE": "Gentbrugge",
    "POSTCODE": "9050",
    "EMAIL": "volwassenenzorg.elyzeesevelden@cggeclips.be",
    "TELEFOON": "09 223 23 09",
    "WEBSITE": "",
    "OPENOP": "",
    "FICHE": "",
    "DRUPAL_ID": "4530",
    "lat": "51.06368700279",
    "lng": "3.70271800555577"
  },
  {
    "FID": "12",
    "NAAM": "Regionaal Centrum voor Geestelijke Gezondheidszorg Deinze-Eeklo-Gent Holstraat",
    "HUISNR": "95",
    "STRAAT": "Holstraat",
    "GEMEENTE": "Gent",
    "POSTCODE": "9000",
    "EMAIL": "cgg.holstraat@rcgg.be",
    "TELEFOON": "09 269 89 39",
    "WEBSITE": "",
    "OPENOP": "",
    "FICHE": "",
    "DRUPAL_ID": "4535",
    "lat": "51.0528790029316",
    "lng": "3.71458700456358"
  },
  {
    "FID": "13",
    "NAAM": "Centrum Geestelijke Gezondheidszorg Eclips - Volwassenenzorg en Ouderenzorg Bernard Spaelaan",
    "HUISNR": "141",
    "STRAAT": "Bernard Spaelaan",
    "GEMEENTE": "Gentbrugge",
    "POSTCODE": "9050",
    "EMAIL": "volwassenenzorg.bernardspaelaan@cggeclips.be",
    "TELEFOON": "09 222 04 04",
    "WEBSITE": "",
    "OPENOP": "",
    "FICHE": "",
    "DRUPAL_ID": "4532",
    "lat": "51.0486040025092",
    "lng": "3.71002800580107"
  },
  {
    "FID": "14",
    "NAAM": "Centrum Geestelijke Gezondheidszorg Eclips - Volwassenenzorg Azaleastraat",
    "HUISNR": "27",
    "STRAAT": "Azaleastraat",
    "GEMEENTE": "Sint-Amandsberg",
    "POSTCODE": "9040",
    "EMAIL": "volwassenenzorg.azaleastraat@cggeclips.be",
    "TELEFOON": "09 228 77 78",
    "WEBSITE": "",
    "OPENOP": "",
    "FICHE": "",
    "DRUPAL_ID": "4528",
    "lat": "51.0609330024445",
    "lng": "3.75156100520526"
  },
  {
    "FID": "15",
    "NAAM": "Centrum Geestelijke Gezondheidszorg Regio Groot Gent Eclips",
    "HUISNR": "74",
    "STRAAT": "Elyzeese Velden",
    "GEMEENTE": "Gentbrugge",
    "POSTCODE": "9050",
    "EMAIL": "info@cggeclips.be",
    "TELEFOON": "09 235 22 41",
    "WEBSITE": "",
    "OPENOP": "",
    "FICHE": "",
    "DRUPAL_ID": "4534",
    "lat": "51.06368700279",
    "lng": "3.70271800555577"
  }
]